[
    {
        "_id": 100100,
        "Name": "Axion Clinic",
        "location": "245 Av. Victoria #430, Westmount, QC H3Z 2M6",
        "phone": "(514) 369-8445",
        "geolocation": {"lat":45.47739141289993, "lng": -73.59935053789067},
        "acupuncturist": ["Miu Kuen Lee", "Alexi Schmidt"],
        "physiotherapist": [],
        "chiropractor": [],
        "osteopath": [],
        "rating": 3,
        "comments": []
    },
    {
        "_id": 100101,
        "Name": "Centre-ville Chiropratique",
        "location": "1197 R. du Square-Phillips, Montréal, QC H3B 3C9",
        "phone": "(514) 954-1099",
        "geolocation": {"lat":45.50366298185794, "lng": -73.56747877307862},
        "acupuncturist": ["Natalie Martin"],
        "physiotherapist": [],
        "chiropractor": ["Antoine Dauphin", "Sonia Bachir Cherif", "Felix Shum"],
        "osteopath": [],
        "rating": 3,
        "comments": []
      },
      {
        "_id": 100102,
        "Name": "Pro Physio Solution",
        "location": "1155 Metcalfe St suite 30, Montreal, Quebec H3B 2V6",
        "phone": "(438) 375-6501",
        "geolocation": {"lat":45.50025969900768, "lng": -73.57018420205306},
        "acupuncturist": ["Rami Bustami"],
        "physiotherapist": [],
        "chiropractor": [],
        "osteopath": ["Pierre Gagnon"],
        "rating": 3,
        "comments": []
      },
      {
        "_id": 100103,
        "Name": "Urgence Physio",
        "location": "2100 Av. de Marlowe, Montréal, QC H4A 3L5",
        "phone": "(514) 488-3131",
        "geolocation": {"lat":45.474588599688516, "lng": -73.60667439008529},
        "acupuncturist": [],
        "physiotherapist": ["Douglas Dongmo" ],
        "chiropractor": [],
        "osteopath": ["Ralph Tohmé"],
        "rating": 3,
        "comments": []
      },
      {
        "_id": 100104,
        "Name": "Dr. Natasha Hayden BSc DC",
        "location": "4950 Queen Mary Rd #310, Montreal, Quebec H3W 1X3",
        "phone": "(514) 419-5737",
        "geolocation": {"lat":45.48630921646418, "lng": -73.6264209500111},
        "acupuncturist": [],
        "physiotherapist": [],
        "chiropractor": ["Natasha Hayden"],
        "osteopath": [],
        "rating": 3,
        "comments": []
      },
      {
        "_id": 100105,
        "Name": "Clinique Sportive MAA",
        "location": "1050 Rue Sherbrooke O, Montréal, QC H3A 2R6",
        "phone": "(514) 845-2233",
        "geolocation": {"lat":45.50207379876539, "lng": -73.57601590191389},
        "acupuncturist": [],
        "physiotherapist": ["Geogre Demirakos"],
        "chiropractor": [],
        "osteopath": ["Ghassen Abid"],
        "rating": 3,
        "comments": []
      },
      {
        "_id": 100106,
        "Name": "Acupuncture Thuy Nguyen",
        "location": "3801 Bd Edouard-Montpetit, Montréal, QC H3T 1L1",
        "phone": "(514) 747-2822",
        "geolocation": {"lat":45.49610901407376, "lng": -73.6256373656377},
        "acupuncturist": ["Thuy Nguyens"],
        "physiotherapist": [],
        "chiropractor": [],
        "osteopath": [],
        "rating": 3,
        "comments": []
      },
      {
        "_id": 100107,
        "Name": "Chantal Haeusler, Ac - Acupuncturist",
        "location": "8075 Casgrain Ave, Montreal, Quebec H2R 1Z4",
        "phone": "(514) 419-6227",
        "geolocation": {"lat":45.54011173479283, "lng": -73.63028005975531},
        "acupuncturist": ["Chantal Hausler"],
        "physiotherapist": [],
        "chiropractor": [],
        "osteopath": [],
        "rating": 3,
        "comments": []
      },
      {
        "_id": 100108,
        "Name": "Nxt Generation PHYSIO Pointe-Claire",
        "location": "2001 Sources Blvd, Pointe-Claire, Quebec H9R 5Z4",
        "phone": "(438) 998-5775",
        "geolocation": {"lat":45.46933521730892, "lng": -73.78836142667414},
        "acupuncturist": ["Marianne Boutin"],
        "physiotherapist": ["Pascal Séguin", "Florence Charbonneau-Dufresne", "Daphne Bilodeau", "Josie Pilon"],
        "chiropractor": [],
        "osteopath": ["Asrafil Goolam-Hossen"],
        "rating": 3,
        "comments": []
      },
      {
        "_id": 100109,
        "Name": "AlterMed Clinics",
        "location": "5757 Monkland Ave, Montreal, Quebec H4A 1E8",
        "phone": "(514) 287-3289",
        "geolocation": {"lat":45.473849672736854, "lng": -73.62465325924914},
        "acupuncturist": ["Nadège Agostini", "Rui Huang", "Achille Volpi"],
        "physiotherapist": ["Alexis M. Léveillé", "Teresa Rassenti", "Magali Scheubel"],
        "chiropractor": [],
        "osteopath": ["Aurore Barea", "Alain Barriol", "Stephen Devlin", "Maïly Dubeau"],
        "rating": 3,
        "comments": []
      },
      {
        "_id": 100110,
        "Name": "Chiro + Physio Westmount",
        "location": "4823 Rue Sherbrooke O #115, Westmount, QC H3Z 1G7",
        "phone": "(514) 937-6550",
        "geolocation": {"lat":45.47950564247553, "lng": -73.6030834099476},
        "acupuncturist": ["Wei Li"],
        "physiotherapist": ["Nurit Roth King", "Francis Zavala"],
        "chiropractor": ["Thanh-My Patricia Ho"],
        "osteopath": [],
        "rating": 3,
        "comments": []
      },
      {
        "_id": 100111,
        "Name": "Physio Steve",
        "location": "1303 Greene Ave #305, Montreal, Quebec H3Z 2A7",
        "phone": "(438) 274-3357",
        "geolocation": {"lat":45.48724143638363, "lng": -73.58999276130608},
        "acupuncturist": [],
        "physiotherapist": ["Steve Procter"],
        "chiropractor": [],
        "osteopath": [],
        "rating": 3,
        "comments": []
      },
      {
        "_id": 100112,
        "Name": "Clinique d'ostéopathie AXIOME",
        "location": "6015 Rue Louis-Hémon, Montréal, QC H2G 2K5",
        "phone": "(514) 212-9482",
        "geolocation": {"lat":45.545386488624764, "lng": -73.58970259105966},
        "acupuncturist": [],
        "physiotherapist": [],
        "chiropractor": [],
        "osteopath": ["Alexis Martin", "Julia Duplessy", "Charlotte Coulot" ],
        "rating": 3,
        "comments": []
      },
      {
        "_id": 100113,
        "Name": "Dr Lydia Ouldchikh, Chiropraticienne Vieux-Montreal",
        "location": "507 Place d'Armes SS 100, Montreal, Quebec H2Y 2W8",
        "phone": "",
        "geolocation": {"lat":45.50520506659159, "lng": -73.55686121648024},
        "acupuncturist": [],
        "physiotherapist": [],
        "chiropractor": ["Lydia Ouldchikh"],
        "osteopath": [],
        "rating": 3,
        "comments": []
      },
      {
        "_id": 100114,
        "Name": "Centre Chiropratique Optimal d’Ahuntsic",
        "location": "150 Rue Fleury O, Montréal, QC H3L 1T5",
        "phone": "(514) 387-4242",
        "geolocation": {"lat":45.54617223680723, "lng": -73.66611694479839},
        "acupuncturist": ["Violaine Fournier"],
        "physiotherapist": [],
        "chiropractor": ["Christine St-Louis"],
        "osteopath": [],
        "rating": 3,
        "comments": []
      },
      {
        "_id": 100115,
        "Name": "Chiropratique Synergie Laënnec",
        "location": "1100 Av. Beaumont Suite 403, Mont-Royal, QC H3P 3H5",
        "phone": "(514) 735-2789",
        "geolocation": {"lat":45.5230108974344, "lng": -73.6228928125595},
        "acupuncturist": [],
        "physiotherapist": [],
        "chiropractor": ["Synergie Laënnec"],
        "osteopath": [],
        "rating": 3,
        "comments": []
      },
      {
        "_id": 100116,
        "Name": "Multiclinique Parc santé",
        "location": "4877 Park Ave, Montreal, Quebec H2V 4E7",
        "phone": "(514) 507-7555",
        "geolocation": {"lat":45.5189295572797, "lng": -73.59366790048242},
        "acupuncturist": ["Larissa B. Dos Santos"],
        "physiotherapist": [],
        "chiropractor": ["Annie Lalonde", "Laurence Delisle", "Marc-Antoine Laquerre"],
        "osteopath": ["Julie Couture-Tétreault", "Thibault Cavrois", "Maude Cavanagh"],
        "rating": 3,
        "comments": []
      },
      {
        "_id": 100117,
        "Name": "Multiclinique des personnes accidentées",
        "location": "1465 Rue Bélanger Est, Montréal, QC H2G 1A5",
        "phone": "(514) 728-2264",
        "geolocation": {"lat":45.54482791934938, "lng": -73.60515521087345},
        "acupuncturist": [],
        "physiotherapist": ["Cara Lee", "Brittany Frank"],
        "chiropractor": [],
        "osteopath": [],
        "rating": 3,
        "comments": []
      }
]
